{"137  Fair Oaks St, Mountain View, CA": {"input": {"address_components": {"number": "137", "street": "Fair Oaks", "suffix": "St", "formatted_street": "Fair Oaks St", "city": "Mountain View", "state": "CA", "country": "US"}, "formatted_address": "137 Fair Oaks St, Mountain View, CA"}, "results": [{"address_components": {"number": "137", "street": "Fair Oaks", "suffix": "St", "formatted_street": "Fair Oaks St", "city": "Mountain View", "county": "Santa Clara County", "state": "CA", "zip": "94040", "country": "US"}, "formatted_address": "137 Fair Oaks St, Mountain View, CA 94040", "location": {"lat": 37.402485, "lng": -122.098708}, "accuracy": 1, "accuracy_type": "range_interpolation", "source": "TIGER/Line\u00ae dataset from the US Census Bureau"}, {"address_components": {"number": "137", "street": "Fair Oaks", "suffix": "St", "formatted_street": "Fair Oaks St", "city": "Mountain View", "county": "Santa Clara County", "state": "CA", "zip": "94040", "country": "US"}, "formatted_address": "137 Fair Oaks St, Mountain View, CA 94040", "location": {"lat": 37.402601, "lng": -122.098986}, "accuracy": 0.9, "accuracy_type": "range_interpolation", "source": "TIGER/Line\u00ae dataset from the US Census Bureau"}, {"address_components": {"number": "135", "street": "Fair Oaks", "suffix": "St", "formatted_street": "Fair Oaks St", "city": "Mountain View", "county": "Santa Clara County", "state": "CA", "zip": "94040", "country": "US"}, "formatted_address": "135 Fair Oaks St, Mountain View, CA 94040", "location": {"lat": 37.402347, "lng": -122.098727}, "accuracy": 0.9, "accuracy_type": "nearest_rooftop_match", "source": "Santa Clara"}, {"address_components": {"number": "134", "street": "Fair Oaks", "suffix": "St", "formatted_street": "Fair Oaks St", "city": "Mountain View", "county": "Santa Clara County", "state": "CA", "zip": "94040", "country": "US"}, "formatted_address": "134 Fair Oaks St, Mountain View, CA 94040", "location": {"lat": 37.402395, "lng": -122.099325}, "accuracy": 0.9, "accuracy_type": "nearest_rooftop_match", "source": "Santa Clara"}, {"address_components": {"number": "134", "street": "Fair Oaks", "suffix": "St", "formatted_street": "Fair Oaks St", "city": "Mountain View", "county": "Santa Clara County", "state": "CA", "zip": "94040", "country": "US"}, "formatted_address": "134 Fair Oaks St, Mountain View, CA 94040", "location": {"lat": 37.402371, "lng": -122.099362}, "accuracy": 0.9, "accuracy_type": "nearest_rooftop_match", "source": "City of Mountain View"}]}, "423  Loreto St, Mountain View, CA": {"input": {"address_components": {"number": "423", "street": "Loreto", "suffix": "St", "formatted_street": "Loreto St", "city": "Mountain View", "state": "CA", "country": "US"}, "formatted_address": "423 Loreto St, Mountain View, CA"}, "results": [{"address_components": {"number": "423", "street": "Loreto", "suffix": "St", "formatted_street": "Loreto St", "city": "Mountain View", "county": "Santa Clara County", "state": "CA", "zip": "94041", "country": "US"}, "formatted_address": "423 Loreto St, Mountain View, CA 94041", "location": {"lat": 37.389906, "lng": -122.076192}, "accuracy": 1, "accuracy_type": "range_interpolation", "source": "TIGER/Line\u00ae dataset from the US Census Bureau"}, {"address_components": {"number": "423", "street": "Loreto", "suffix": "St", "formatted_street": "Loreto St", "city": "Mountain View", "county": "Santa Clara County", "state": "CA", "zip": "94041", "country": "US"}, "formatted_address": "423 Loreto St, Mountain View, CA 94041", "location": {"lat": 37.390172, "lng": -122.076053}, "accuracy": 0.9, "accuracy_type": "range_interpolation", "source": "TIGER/Line\u00ae dataset from the US Census Bureau"}, {"address_components": {"number": "422", "street": "Loreto", "suffix": "St", "formatted_street": "Loreto St", "city": "Mountain View", "county": "Santa Clara County", "state": "CA", "zip": "94041", "country": "US"}, "formatted_address": "422 Loreto St, Mountain View, CA 94041", "location": {"lat": 37.390222, "lng": -122.07602}, "accuracy": 0.9, "accuracy_type": "nearest_rooftop_match", "source": "Santa Clara"}, {"address_components": {"number": "422", "street": "Loreto", "suffix": "St", "formatted_street": "Loreto St", "city": "Mountain View", "county": "Santa Clara County", "state": "CA", "zip": "94041", "country": "US"}, "formatted_address": "422 Loreto St, Mountain View, CA 94041", "location": {"lat": 37.390224, "lng": -122.076057}, "accuracy": 0.9, "accuracy_type": "nearest_rooftop_match", "source": "City of Mountain View"}, {"address_components": {"number": "421", "street": "Loreto", "suffix": "St", "formatted_street": "Loreto St", "city": "Mountain View", "county": "Santa Clara County", "state": "CA", "zip": "94041", "country": "US"}, "formatted_address": "421 Loreto St, Mountain View, CA 94041", "location": {"lat": 37.389899, "lng": -122.076322}, "accuracy": 0.9, "accuracy_type": "nearest_rooftop_match", "source": "Santa Clara"}]}}
